{
"type": "FeatureCollection",
"crs": { "type": "name", "properties": { "name": "urn:ogc:def:crs:OGC:1.3:CRS84" } },
"features": [
{ "type": "Feature", "properties": { "Name": "Adam Beck Community Centre", "Street": "79 Lawlor Ave", "City": "Toronto", "Type": "Recreational Centre" }, "geometry": { "type": "Point", "coordinates": [ -79.2891132, 43.6820947 ] } },
{ "type": "Feature", "properties": { "Name": "Agincourt Recreation Centre", "Street": "31 Glen Watford Dr", "City": "Toronto", "Type": "Recreational Centre" }, "geometry": { "type": "Point", "coordinates": [ -79.276041983505706, 43.7884885 ] } },
{ "type": "Feature", "properties": { "Name": "Albion Arena", "Street": "1501 Albion Rd", "City": "Toronto", "Type": "Recreational Centre" }, "geometry": { "type": "Point", "coordinates": [ -79.582827592005827, 43.73958985 ] } },
{ "type": "Feature", "properties": { "Name": "Albion Pool and Health Club", "Street": "1485 Albion Rd", "City": "Toronto", "Type": "Recreational Centre" }, "geometry": { "type": "Point", "coordinates": [ -79.580608, 43.7396133 ] } },
{ "type": "Feature", "properties": { "Name": "Alderwood Centre", "Street": "2 Orianna Dr", "City": "Toronto", "Type": "Recreational Centre" }, "geometry": { "type": "Point", "coordinates": [ -79.5473673, 43.601598 ] } },
{ "type": "Feature", "properties": { "Name": "Amesbury Community Centre", "Street": "1507 Lawrence Ave", "City": "Toronto", "Type": "Recreational Centre" }, "geometry": { "type": "Point", "coordinates": [ -79.4824294, 43.7073942 ] } },
{ "type": "Feature", "properties": { "Name": "Amesbury Sports Complex", "Street": "155 Culford Rd", "City": "Toronto", "Type": "Recreational Centre" }, "geometry": { "type": "Point", "coordinates": [ -79.4872184, 43.7057817 ] } },
{ "type": "Feature", "properties": { "Name": "Ancaster Community Centre", "Street": "41 Ancaster Rd", "City": "Toronto", "Type": "Recreational Centre" }, "geometry": { "type": "Point", "coordinates": [ -79.4658154, 43.7319545 ] } },
{ "type": "Feature", "properties": { "Name": "Angela James Arena", "Street": "165 Grenoble Dr", "City": "Toronto", "Type": "Recreational Centre" }, "geometry": { "type": "Point", "coordinates": [ -79.327583875666676, 43.7131471 ] } },
{ "type": "Feature", "properties": { "Name": "Annette Community Recreation Centre", "Street": "333 Annette St", "City": "Toronto", "Type": "Recreational Centre" }, "geometry": { "type": "Point", "coordinates": [ -79.4740297, 43.6612108 ] } },
{ "type": "Feature", "properties": { "Name": "Antibes Community Centre", "Street": "140 Antibes Dr", "City": "Toronto", "Type": "Recreational Centre" }, "geometry": { "type": "Point", "coordinates": [ -79.446984696886801, 43.7811986 ] } },
{ "type": "Feature", "properties": { "Name": "Armour Heights Community Centre", "Street": "2140 Avenue Rd", "City": "Toronto", "Type": "Recreational Centre" }, "geometry": { "type": "Point", "coordinates": [ -79.4217072, 43.7392676 ] } },
{ "type": "Feature", "properties": { "Name": "Banbury Community Centre", "Street": "120 Banbury Rd.", "City": "Toronto", "Type": "Recreational Centre" }, "geometry": { "type": "Point", "coordinates": [ -79.3687358, 43.7428477 ] } },
{ "type": "Feature", "properties": { "Name": "Barbara Frum Community Centre", "Street": "20 Covington Rd", "City": "Toronto", "Type": "Recreational Centre" }, "geometry": { "type": "Point", "coordinates": [ -79.43218309273351, 43.720779 ] } },
{ "type": "Feature", "properties": { "Name": "Baycrest Arena", "Street": "160 Neptune Dr.", "City": "Toronto", "Type": "Recreational Centre" }, "geometry": { "type": "Point", "coordinates": [ -79.443152207894741, 43.7289195 ] } },
{ "type": "Feature", "properties": { "Name": "Bayview Arena", "Street": "3230 Bayview Ave", "City": "Toronto", "Type": "Recreational Centre" }, "geometry": { "type": "Point", "coordinates": [ -79.393698325306119, 43.7879811 ] } },
{ "type": "Feature", "properties": { "Name": "Beaches Recreation Centre", "Street": "6 Williamson Rd", "City": "Toronto", "Type": "Recreational Centre" }, "geometry": { "type": "Point", "coordinates": [ -79.298596089282043, 43.67404395 ] } },
{ "type": "Feature", "properties": { "Name": "Bedford Park Community Centre", "Street": "81 Ranleigh Ave", "City": "Toronto", "Type": "Recreational Centre" }, "geometry": { "type": "Point", "coordinates": [ -79.399788675, 43.727999 ] } },
{ "type": "Feature", "properties": { "Name": "Berner Trail Community Centre", "Street": "120 Berner Trail", "City": "Toronto", "Type": "Recreational Centre" }, "geometry": { "type": "Point", "coordinates": [ -79.2205677, 43.8013128 ] } },
{ "type": "Feature", "properties": { "Name": "Birchmount Community Centre", "Street": "93 Birchmount Rd", "City": "Toronto", "Type": "Recreational Centre" }, "geometry": { "type": "Point", "coordinates": [ -79.2632036, 43.6956191 ] } },
{ "type": "Feature", "properties": { "Name": "Birkdale Community Centre", "Street": "1299 Ellesmere Rd", "City": "Toronto", "Type": "Recreational Centre" }, "geometry": { "type": "Point", "coordinates": [ -79.2642882, 43.7692038 ] } },
{ "type": "Feature", "properties": { "Name": "Bloordale Community School", "Street": "10 Toledo Rd", "City": "Toronto", "Type": "Recreational Centre" }, "geometry": { "type": "Point", "coordinates": [ -79.572752220023858, 43.6399318 ] } },
{ "type": "Feature", "properties": { "Name": "Bob Abate Community Recreation Centre", "Street": "485 Montrose Ave", "City": "Toronto", "Type": "Recreational Centre" }, "geometry": { "type": "Point", "coordinates": [ -79.4184771, 43.6556488 ] } },
{ "type": "Feature", "properties": { "Name": "Broadlands Community Centre", "Street": "19 Castlegrove Blvd", "City": "Toronto", "Type": "Recreational Centre" }, "geometry": { "type": "Point", "coordinates": [ -79.3235218, 43.7448142 ] } },
{ "type": "Feature", "properties": { "Name": "Brown Community Centre", "Street": "454 Avenue Rd", "City": "Toronto", "Type": "Recreational Centre" }, "geometry": { "type": "Point", "coordinates": [ -79.4017976066703, 43.6848281 ] } },
{ "type": "Feature", "properties": { "Name": "Burrows Hall Community Centre", "Street": "1081 Progress Ave", "City": "Toronto", "Type": "Recreational Centre" }, "geometry": { "type": "Point", "coordinates": [ -79.2343514, 43.794133 ] } },
{ "type": "Feature", "properties": { "Name": "Canoe Landing Community Recreation Centre", "Street": "45 Fort York Blvd.", "City": "Toronto", "Type": "Recreational Centre" }, "geometry": { "type": "Point", "coordinates": [ -79.3985682, 43.6392944 ] } },
{ "type": "Feature", "properties": { "Name": "Carmine Stefano Community Centre", "Street": "3100 Weston Rd", "City": "Toronto", "Type": "Recreational Centre" }, "geometry": { "type": "Point", "coordinates": [ -79.5384084, 43.7337601 ] } },
{ "type": "Feature", "properties": { "Name": "Cedarbrook Community Centre", "Street": "91 Eastpark Blvd", "City": "Toronto", "Type": "Recreational Centre" }, "geometry": { "type": "Point", "coordinates": [ -79.2242291, 43.7554847 ] } },
{ "type": "Feature", "properties": { "Name": "Centennial Park Arena", "Street": "156 Centennial Park Rd", "City": "Toronto", "Type": "Recreational Centre" }, "geometry": { "type": "Point", "coordinates": [ -79.5858957, 43.6561363 ] } },
{ "type": "Feature", "properties": { "Name": "Centennial Recreation Centre - Scarborough", "Street": "1967 Ellesmere Rd", "City": "Toronto", "Type": "Recreational Centre" }, "geometry": { "type": "Point", "coordinates": [ -79.2351695, 43.7755592 ] } },
{ "type": "Feature", "properties": { "Name": "Central Arena", "Street": "50 Montgomery Rd", "City": "Toronto", "Type": "Recreational Centre" }, "geometry": { "type": "Point", "coordinates": [ -79.5207163, 43.6497877 ] } },
{ "type": "Feature", "properties": { "Name": "Chalkfarm Community Centre", "Street": "180 Chalkfarm Dr", "City": "Toronto", "Type": "Recreational Centre" }, "geometry": { "type": "Point", "coordinates": [ -79.511596304147162, 43.7239809 ] } },
{ "type": "Feature", "properties": { "Name": "Chris Tonks Arena", "Street": "95 Black Creek Dr", "City": "Toronto", "Type": "Recreational Centre" }, "geometry": { "type": "Point", "coordinates": [ -79.4830132, 43.6885035 ] } },
{ "type": "Feature", "properties": { "Name": "Commander Recreation Centre", "Street": "140 Commander Blvd", "City": "Toronto", "Type": "Recreational Centre" }, "geometry": { "type": "Point", "coordinates": [ -79.268554, 43.7948019 ] } },
{ "type": "Feature", "properties": { "Name": "Cummer Park Community Centre", "Street": "6000 Leslie St.", "City": "Toronto", "Type": "Recreational Centre" }, "geometry": { "type": "Point", "coordinates": [ -79.371219948717936, 43.800115 ] } },
{ "type": "Feature", "properties": { "Name": "Curran Hall Community Centre", "Street": "277 Orton Park Rd", "City": "Toronto", "Type": "Recreational Centre" }, "geometry": { "type": "Point", "coordinates": [ -79.210807649880095, 43.7774536 ] } },
{ "type": "Feature", "properties": { "Name": "David Appleton Community Recreation Centre", "Street": "33 Pritchard Ave", "City": "Toronto", "Type": "Recreational Centre" }, "geometry": { "type": "Point", "coordinates": [ -79.488872376100346, 43.6701905 ] } },
{ "type": "Feature", "properties": { "Name": "Dennis R. Timbrell Resource Centre", "Street": "29 St Dennis Dr", "City": "Toronto", "Type": "Recreational Centre" }, "geometry": { "type": "Point", "coordinates": [ -79.3318199, 43.718059 ] } },
{ "type": "Feature", "properties": { "Name": "Domenico Di Luca Community Recreation Centre", "Street": "25 Stanley Rd", "City": "Toronto", "Type": "Recreational Centre" }, "geometry": { "type": "Point", "coordinates": [ -79.5148765, 43.742818 ] } },
{ "type": "Feature", "properties": { "Name": "Don Montgomery Community Centre", "Street": "2467 Eglinton Ave", "City": "Toronto", "Type": "Recreational Centre" }, "geometry": { "type": "Point", "coordinates": [ -79.261697014841445, 43.7326575 ] } },
{ "type": "Feature", "properties": { "Name": "Douglas Snow Aquatic Centre", "Street": "5100 Yonge St", "City": "Toronto", "Type": "Recreational Centre" }, "geometry": { "type": "Point", "coordinates": [ -79.414669442436491, 43.7672407 ] } },
{ "type": "Feature", "properties": { "Name": "Downsview Arena", "Street": "1633 Wilson Ave", "City": "Toronto", "Type": "Recreational Centre" }, "geometry": { "type": "Point", "coordinates": [ -79.5253052, 43.7171973 ] } },
{ "type": "Feature", "properties": { "Name": "Driftwood Community Recreation Centre", "Street": "4401 Jane St", "City": "Toronto", "Type": "Recreational Centre" }, "geometry": { "type": "Point", "coordinates": [ -79.518763529703421, 43.76542735 ] } },
{ "type": "Feature", "properties": { "Name": "Earl Bales Community Centre", "Street": "4169 Bathurst St", "City": "Toronto", "Type": "Recreational Centre" }, "geometry": { "type": "Point", "coordinates": [ -79.4378081, 43.7534966 ] } },
{ "type": "Feature", "properties": { "Name": "Earl Beatty Community Centre", "Street": "455 Glebeholme Blvd", "City": "Toronto", "Type": "Recreational Centre" }, "geometry": { "type": "Point", "coordinates": [ -79.3211219, 43.6863765 ] } },
{ "type": "Feature", "properties": { "Name": "East York Community Centre", "Street": "1081 1/2 Pape Ave", "City": "Toronto", "Type": "Recreational Centre" }, "geometry": { "type": "Point", "coordinates": [ -79.349258498809817, 43.69179465 ] } },
{ "type": "Feature", "properties": { "Name": "East York Curling Club", "Street": "901 Cosburn Ave", "City": "Toronto", "Type": "Recreational Centre" }, "geometry": { "type": "Point", "coordinates": [ -79.313629766469177, 43.6964869 ] } },
{ "type": "Feature", "properties": { "Name": "East York Memorial Arena", "Street": "888 Cosburn Ave", "City": "Toronto", "Type": "Recreational Centre" }, "geometry": { "type": "Point", "coordinates": [ -79.315315862983965, 43.6975039 ] } },
{ "type": "Feature", "properties": { "Name": "Edenbridge Centre", "Street": "235 Edenbridge Dr", "City": "Toronto", "Type": "Recreational Centre" }, "geometry": { "type": "Point", "coordinates": [ -79.510844617091152, 43.67745505 ] } },
{ "type": "Feature", "properties": { "Name": "Edgehill House", "Street": "61 Edgehill Rd.", "City": "Toronto", "Type": "Recreational Centre" }, "geometry": { "type": "Point", "coordinates": [ -79.516971201048236, 43.670589845739634 ] } },
{ "type": "Feature", "properties": { "Name": "Edithvale Community Centre", "Street": "131 Finch Ave", "City": "Toronto", "Type": "Recreational Centre" }, "geometry": { "type": "Point", "coordinates": [ -79.405854585714266, 43.781750057142858 ] } },
{ "type": "Feature", "properties": { "Name": "Ellesmere Community Centre", "Street": "20 Canadian Rd", "City": "Toronto", "Type": "Recreational Centre" }, "geometry": { "type": "Point", "coordinates": [ -79.2922103, 43.7609748 ] } },
{ "type": "Feature", "properties": { "Name": "Elmbank Community Centre", "Street": "10 Rampart Rd", "City": "Toronto", "Type": "Recreational Centre" }, "geometry": { "type": "Point", "coordinates": [ -79.5891567, 43.7344195 ] } },
{ "type": "Feature", "properties": { "Name": "Ethennonnhawahstihnen' Community Recreation Centre and Library", "Street": "100 Ethennonnhawahstihnen' Ln.", "City": "Toronto", "Type": "Recreational Centre" }, "geometry": { "type": "Point", "coordinates": [ -79.3753422, 43.7686106 ] } },
{ "type": "Feature", "properties": { "Name": "Etobicoke Civic Centre", "Street": "399 The West Mall", "City": "Toronto", "Type": "Recreational Centre" }, "geometry": { "type": "Point", "coordinates": [ -79.565325345536053, 43.6435491 ] } },
{ "type": "Feature", "properties": { "Name": "Etobicoke Olympium", "Street": "590 Rathburn Rd", "City": "Toronto", "Type": "Recreational Centre" }, "geometry": { "type": "Point", "coordinates": [ -79.5835018, 43.6496639 ] } },
{ "type": "Feature", "properties": { "Name": "Fairbank Memorial Community Centre", "Street": "2213 Dufferin St", "City": "Toronto", "Type": "Recreational Centre" }, "geometry": { "type": "Point", "coordinates": [ -79.4479591, 43.6912635 ] } },
{ "type": "Feature", "properties": { "Name": "Fairfield Seniors' Centre", "Street": "80 Lothian Ave", "City": "Toronto", "Type": "Recreational Centre" }, "geometry": { "type": "Point", "coordinates": [ -79.519250923418412, 43.639515 ] } },
{ "type": "Feature", "properties": { "Name": "Fairmount Park Community Centre", "Street": "1757 Gerrard St", "City": "Toronto", "Type": "Recreational Centre" }, "geometry": { "type": "Point", "coordinates": [ -79.3151891, 43.6766474 ] } },
{ "type": "Feature", "properties": { "Name": "Falstaff Community Centre", "Street": "50 Falstaff Ave", "City": "Toronto", "Type": "Recreational Centre" }, "geometry": { "type": "Point", "coordinates": [ -79.5025215, 43.7166216 ] } },
{ "type": "Feature", "properties": { "Name": "Fenside Arena", "Street": "30 Slidell Cres", "City": "Toronto", "Type": "Recreational Centre" }, "geometry": { "type": "Point", "coordinates": [ -79.327036866632483, 43.763694814622951 ] } },
{ "type": "Feature", "properties": { "Name": "Flemingdon Community Centre", "Street": "150 Grenoble Dr", "City": "Toronto", "Type": "Recreational Centre" }, "geometry": { "type": "Point", "coordinates": [ -79.3267109, 43.713091 ] } },
{ "type": "Feature", "properties": { "Name": "Frankland Community Centre", "Street": "816 Logan Ave", "City": "Toronto", "Type": "Recreational Centre" }, "geometry": { "type": "Point", "coordinates": [ -79.349899, 43.6772202 ] } },
{ "type": "Feature", "properties": { "Name": "Glen Long Community Centre", "Street": "35 Glen Long Ave", "City": "Toronto", "Type": "Recreational Centre" }, "geometry": { "type": "Point", "coordinates": [ -79.4565793, 43.7092608 ] } },
{ "type": "Feature", "properties": { "Name": "Gord and Irene Risk Community Centre", "Street": "2650 Finch Ave", "City": "Toronto", "Type": "Recreational Centre" }, "geometry": { "type": "Point", "coordinates": [ -79.56595495, 43.74731005 ] } },
{ "type": "Feature", "properties": { "Name": "Goulding Community Centre", "Street": "45 Goulding Ave", "City": "Toronto", "Type": "Recreational Centre" }, "geometry": { "type": "Point", "coordinates": [ -79.422076522435901, 43.790698 ] } },
{ "type": "Feature", "properties": { "Name": "Grandravine Community Recreation Centre", "Street": "23 Grandravine Dr", "City": "Toronto", "Type": "Recreational Centre" }, "geometry": { "type": "Point", "coordinates": [ -79.4896362, 43.7517796 ] } },
{ "type": "Feature", "properties": { "Name": "Gus Ryder Pool and Health Club", "Street": "1 Faustina Dr", "City": "Toronto", "Type": "Recreational Centre" }, "geometry": { "type": "Point", "coordinates": [ -79.5220394, 43.6008789 ] } },
{ "type": "Feature", "properties": { "Name": "Habitant Arena", "Street": "3383 Weston Rd", "City": "Toronto", "Type": "Recreational Centre" }, "geometry": { "type": "Point", "coordinates": [ -79.540238854827649, 43.74699355 ] } },
{ "type": "Feature", "properties": { "Name": "Harrison Pool", "Street": "15 Stephanie St", "City": "Toronto", "Type": "Recreational Centre" }, "geometry": { "type": "Point", "coordinates": [ -79.39083145, 43.65109365 ] } },
{ "type": "Feature", "properties": { "Name": "Harwood Hall", "Street": "85 Cayuga Ave", "City": "Toronto", "Type": "Recreational Centre" }, "geometry": { "type": "Point", "coordinates": [ -79.478862633333335, 43.6785487 ] } },
{ "type": "Feature", "properties": { "Name": "Herbert H. Carnegie Centennial Centre", "Street": "580 Finch Ave", "City": "Toronto", "Type": "Recreational Centre" }, "geometry": { "type": "Point", "coordinates": [ -79.450133193768465, 43.7735138 ] } },
{ "type": "Feature", "properties": { "Name": "Heron Park Community Centre", "Street": "292 Manse Rd", "City": "Toronto", "Type": "Recreational Centre" }, "geometry": { "type": "Point", "coordinates": [ -79.1774533, 43.7688046 ] } },
{ "type": "Feature", "properties": { "Name": "Hillcrest Community Centre", "Street": "1339 Bathurst St", "City": "Toronto", "Type": "Recreational Centre" }, "geometry": { "type": "Point", "coordinates": [ -79.4011346, 43.6400792 ] } },
{ "type": "Feature", "properties": { "Name": "Hilltop Community School", "Street": "35 Trehorne Dr.", "City": "Toronto", "Type": "Recreational Centre" }, "geometry": { "type": "Point", "coordinates": [ -79.532027709275425, 43.68849155 ] } },
{ "type": "Feature", "properties": { "Name": "Hollycrest Community School", "Street": "630 Renforth Dr", "City": "Toronto", "Type": "Recreational Centre" }, "geometry": { "type": "Point", "coordinates": [ -79.58269464591406, 43.65552175 ] } },
{ "type": "Feature", "properties": { "Name": "Holy Family Community Centre", "Street": "141 Close Ave.", "City": "Toronto", "Type": "Recreational Centre" }, "geometry": { "type": "Point", "coordinates": [ -79.434494444504423, 43.63837055 ] } },
{ "type": "Feature", "properties": { "Name": "Horner Avenue Seniors Centre", "Street": "320 Horner Ave", "City": "Toronto", "Type": "Recreational Centre" }, "geometry": { "type": "Point", "coordinates": [ -79.5267784, 43.6059672 ] } },
{ "type": "Feature", "properties": { "Name": "Humberwood Community Centre", "Street": "850 Humberwood Blvd", "City": "Toronto", "Type": "Recreational Centre" }, "geometry": { "type": "Point", "coordinates": [ -79.619532, 43.7304616 ] } },
{ "type": "Feature", "properties": { "Name": "Irving W. Chapley Community Centre", "Street": "205 Wilmington Ave", "City": "Toronto", "Type": "Recreational Centre" }, "geometry": { "type": "Point", "coordinates": [ -79.455854, 43.7616902 ] } },
{ "type": "Feature", "properties": { "Name": "Islington Community School", "Street": "44 Cordova Ave", "City": "Toronto", "Type": "Recreational Centre" }, "geometry": { "type": "Point", "coordinates": [ -79.528110930021924, 43.647313 ] } },
{ "type": "Feature", "properties": { "Name": "Islington Seniors' Centre", "Street": "4968 Dundas St", "City": "Toronto", "Type": "Recreational Centre" }, "geometry": { "type": "Point", "coordinates": [ -79.530121993152747, 43.6476475 ] } },
{ "type": "Feature", "properties": { "Name": "Jack Goodlad Community Centre", "Street": "929 Kennedy Rd", "City": "Toronto", "Type": "Recreational Centre" }, "geometry": { "type": "Point", "coordinates": [ -79.271185, 43.742326 ] } },
{ "type": "Feature", "properties": { "Name": "James S. Bell Community School", "Street": "90 Thirty First St", "City": "Toronto", "Type": "Recreational Centre" }, "geometry": { "type": "Point", "coordinates": [ -79.530489750295374, 43.59398215 ] } },
{ "type": "Feature", "properties": { "Name": "Jenner Jean-Marie Community Centre", "Street": "48 Thorncliffe Park Dr", "City": "Toronto", "Type": "Recreational Centre" }, "geometry": { "type": "Point", "coordinates": [ -79.3430445, 43.7032541 ] } },
{ "type": "Feature", "properties": { "Name": "Jimmie Simpson Recreation Centre", "Street": "870 Queen St", "City": "Toronto", "Type": "Recreational Centre" }, "geometry": { "type": "Point", "coordinates": [ -79.4143088, 43.6453034 ] } },
{ "type": "Feature", "properties": { "Name": "John Booth Memorial Arena", "Street": "230 Gosford Blvd", "City": "Toronto", "Type": "Recreational Centre" }, "geometry": { "type": "Point", "coordinates": [ -79.5240336, 43.7697148 ] } },
{ "type": "Feature", "properties": { "Name": "John English Community School", "Street": "95 Mimico Ave", "City": "Toronto", "Type": "Recreational Centre" }, "geometry": { "type": "Point", "coordinates": [ -79.494143577441463, 43.6118743 ] } },
{ "type": "Feature", "properties": { "Name": "John G. Althouse Community School", "Street": "130 Lloyd Manor Rd", "City": "Toronto", "Type": "Recreational Centre" }, "geometry": { "type": "Point", "coordinates": [ -79.554403127811639, 43.667903 ] } },
{ "type": "Feature", "properties": { "Name": "John Innes Community Recreation Centre", "Street": "150 Sherbourne St", "City": "Toronto", "Type": "Recreational Centre" }, "geometry": { "type": "Point", "coordinates": [ -79.370378273369568, 43.6554585 ] } },
{ "type": "Feature", "properties": { "Name": "Joseph J. Piccininni Community Centre", "Street": "1369 St. Clair Ave", "City": "Toronto", "Type": "Recreational Centre" }, "geometry": { "type": "Point", "coordinates": [ -79.4515427, 43.6753158 ] } },
{ "type": "Feature", "properties": { "Name": "Keele Community Centre", "Street": "181 Glenlake Ave", "City": "Toronto", "Type": "Recreational Centre" }, "geometry": { "type": "Point", "coordinates": [ -79.4696648, 43.6564692 ] } },
{ "type": "Feature", "properties": { "Name": "Ken Cox Community Centre", "Street": "28 Colonel Samuel Smith Park Dr", "City": "Toronto", "Type": "Recreational Centre" }, "geometry": { "type": "Point", "coordinates": [ -79.517235851385919, 43.5954338 ] } },
{ "type": "Feature", "properties": { "Name": "Kingsview Village Community School", "Street": "1 York Rd", "City": "Toronto", "Type": "Recreational Centre" }, "geometry": { "type": "Point", "coordinates": [ -79.550497803114709, 43.6977905 ] } },
{ "type": "Feature", "properties": { "Name": "L'Amoreaux Community Recreation Centre", "Street": "2000 Mcnicoll Ave", "City": "Toronto", "Type": "Recreational Centre" }, "geometry": { "type": "Point", "coordinates": [ -79.30222, 43.8121996 ] } },
{ "type": "Feature", "properties": { "Name": "Lambton Arena", "Street": "4100 Dundas St", "City": "Toronto", "Type": "Recreational Centre" }, "geometry": { "type": "Point", "coordinates": [ -79.5156966, 43.6585551 ] } },
{ "type": "Feature", "properties": { "Name": "Lawrence Heights Community Centre", "Street": "5 Replin Rd", "City": "Toronto", "Type": "Recreational Centre" }, "geometry": { "type": "Point", "coordinates": [ -79.442269687136616, 43.7180335 ] } },
{ "type": "Feature", "properties": { "Name": "Leaside Curling Club", "Street": "1075 Millwood Rd", "City": "Toronto", "Type": "Recreational Centre" }, "geometry": { "type": "Point", "coordinates": [ -79.36088135, 43.7010227 ] } },
{ "type": "Feature", "properties": { "Name": "Long Branch Arena", "Street": "75 Arcadian Cir", "City": "Toronto", "Type": "Recreational Centre" }, "geometry": { "type": "Point", "coordinates": [ -79.5259643, 43.5915962 ] } },
{ "type": "Feature", "properties": { "Name": "Main Square Community Centre", "Street": "245 Main St", "City": "Toronto", "Type": "Recreational Centre" }, "geometry": { "type": "Point", "coordinates": [ -79.301225, 43.6872539 ] } },
{ "type": "Feature", "properties": { "Name": "Malvern Recreation Centre", "Street": "30 Sewells Rd", "City": "Toronto", "Type": "Recreational Centre" }, "geometry": { "type": "Point", "coordinates": [ -79.2158192, 43.8081062 ] } },
{ "type": "Feature", "properties": { "Name": "Mary McCormick Recreation Centre", "Street": "66 Sheridan Ave", "City": "Toronto", "Type": "Recreational Centre" }, "geometry": { "type": "Point", "coordinates": [ -79.4333327, 43.6475446 ] } },
{ "type": "Feature", "properties": { "Name": "Masaryk-Cowan Community Recreation Centre", "Street": "220 Cowan Ave", "City": "Toronto", "Type": "Recreational Centre" }, "geometry": { "type": "Point", "coordinates": [ -79.4332738, 43.6407259 ] } },
{ "type": "Feature", "properties": { "Name": "Matty Eckler Recreation Centre", "Street": "953 Gerrard St", "City": "Toronto", "Type": "Recreational Centre" }, "geometry": { "type": "Point", "coordinates": [ -79.339785551774725, 43.6678944 ] } },
{ "type": "Feature", "properties": { "Name": "Maurice Cody Community Centre", "Street": "181 Cleveland St", "City": "Toronto", "Type": "Recreational Centre" }, "geometry": { "type": "Point", "coordinates": [ -79.378400950705696, 43.7052554 ] } },
{ "type": "Feature", "properties": { "Name": "McGregor Park Community Centre", "Street": "2231 Lawrence Ave", "City": "Toronto", "Type": "Recreational Centre" }, "geometry": { "type": "Point", "coordinates": [ -79.276411, 43.749043 ] } },
{ "type": "Feature", "properties": { "Name": "Memorial Pool and Health Club", "Street": "44 Montgomery Rd", "City": "Toronto", "Type": "Recreational Centre" }, "geometry": { "type": "Point", "coordinates": [ -79.52016172, 43.64950378 ] } },
{ "type": "Feature", "properties": { "Name": "Milliken Park Community Recreation Centre", "Street": "4325 Mccowan Rd", "City": "Toronto", "Type": "Recreational Centre" }, "geometry": { "type": "Point", "coordinates": [ -79.2750531, 43.8288558 ] } },
{ "type": "Feature", "properties": { "Name": "Mimico Arena", "Street": "31 Drummond St", "City": "Toronto", "Type": "Recreational Centre" }, "geometry": { "type": "Point", "coordinates": [ -79.4972982, 43.6129133 ] } },
{ "type": "Feature", "properties": { "Name": "Mitchell Field Community Centre", "Street": "89 Church Ave", "City": "Toronto", "Type": "Recreational Centre" }, "geometry": { "type": "Point", "coordinates": [ -79.408345601864539, 43.77455165 ] } },
{ "type": "Feature", "properties": { "Name": "Mount Dennis Community Hall", "Street": "4 Hollis St", "City": "Toronto", "Type": "Recreational Centre" }, "geometry": { "type": "Point", "coordinates": [ -79.489798848913793, 43.687392744407113 ] } },
{ "type": "Feature", "properties": { "Name": "New Toronto Seniors' Centre", "Street": "105 Fourth St", "City": "Toronto", "Type": "Recreational Centre" }, "geometry": { "type": "Point", "coordinates": [ -79.5014196, 43.6011001 ] } },
{ "type": "Feature", "properties": { "Name": "Norseman Community School and Pool", "Street": "105 Norseman St", "City": "Toronto", "Type": "Recreational Centre" }, "geometry": { "type": "Point", "coordinates": [ -79.5170427, 43.634178 ] } },
{ "type": "Feature", "properties": { "Name": "North Kipling Community Centre", "Street": "2 Rowntree Rd", "City": "Toronto", "Type": "Recreational Centre" }, "geometry": { "type": "Point", "coordinates": [ -79.5842832, 43.7518272 ] } },
{ "type": "Feature", "properties": { "Name": "North Toronto Memorial Community Centre", "Street": "200 Eglinton Ave", "City": "Toronto", "Type": "Recreational Centre" }, "geometry": { "type": "Point", "coordinates": [ -79.404774341587853, 43.70601015 ] } },
{ "type": "Feature", "properties": { "Name": "North York Civic Centre", "Street": "5100 Yonge St", "City": "Toronto", "Type": "Recreational Centre" }, "geometry": { "type": "Point", "coordinates": [ -79.414669442436491, 43.7672407 ] } },
{ "type": "Feature", "properties": { "Name": "Northwood Community Centre", "Street": "15 Clubhouse Crt", "City": "Toronto", "Type": "Recreational Centre" }, "geometry": { "type": "Point", "coordinates": [ -79.5015262, 43.7451634 ] } },
{ "type": "Feature", "properties": { "Name": "O'Connor Community Centre", "Street": "1386 Victoria Park Ave", "City": "Toronto", "Type": "Recreational Centre" }, "geometry": { "type": "Point", "coordinates": [ -79.301817033871814, 43.71765015 ] } },
{ "type": "Feature", "properties": { "Name": "Oakdale Community Centre", "Street": "350 Grandravine Dr", "City": "Toronto", "Type": "Recreational Centre" }, "geometry": { "type": "Point", "coordinates": [ -79.5149224, 43.7472636 ] } },
{ "type": "Feature", "properties": { "Name": "Oakridge Community Recreation Centre", "Street": "63 Pharmacy Ave", "City": "Toronto", "Type": "Recreational Centre" }, "geometry": { "type": "Point", "coordinates": [ -79.2840949, 43.6949408 ] } },
{ "type": "Feature", "properties": { "Name": "One Yonge Community Recreation Centre", "Street": "24 Freeland St.", "City": "Toronto", "Type": "Recreational Centre" }, "geometry": { "type": "Point", "coordinates": [ -79.3740555, 43.6444647 ] } },
{ "type": "Feature", "properties": { "Name": "Oriole Community Centre", "Street": "2975 Don Mills Rd", "City": "Toronto", "Type": "Recreational Centre" }, "geometry": { "type": "Point", "coordinates": [ -79.351371596658964, 43.781771 ] } },
{ "type": "Feature", "properties": { "Name": "Ourland Community Centre", "Street": "18 Ourland Ave", "City": "Toronto", "Type": "Recreational Centre" }, "geometry": { "type": "Point", "coordinates": [ -79.5090986, 43.6184665 ] } },
{ "type": "Feature", "properties": { "Name": "Pam McConnell Aquatic Centre", "Street": "640 Dundas St", "City": "Toronto", "Type": "Recreational Centre" }, "geometry": { "type": "Point", "coordinates": [ -79.4027385, 43.6520381 ] } },
{ "type": "Feature", "properties": { "Name": "Park Lawn Community School", "Street": "71 Ballacaine Dr", "City": "Toronto", "Type": "Recreational Centre" }, "geometry": { "type": "Point", "coordinates": [ -79.496402507635878, 43.63790515 ] } },
{ "type": "Feature", "properties": { "Name": "Parkdale Community Recreation Centre", "Street": "75 Lansdowne Ave.", "City": "Toronto", "Type": "Recreational Centre" }, "geometry": { "type": "Point", "coordinates": [ -79.4373612, 43.6436414 ] } },
{ "type": "Feature", "properties": { "Name": "Parkway Forest Community Centre", "Street": "55 Forest Manor Rd", "City": "Toronto", "Type": "Recreational Centre" }, "geometry": { "type": "Point", "coordinates": [ -79.344367952597509, 43.77218437251269 ] } },
{ "type": "Feature", "properties": { "Name": "Pelmo Park Community Centre", "Street": "171 Pellatt Ave", "City": "Toronto", "Type": "Recreational Centre" }, "geometry": { "type": "Point", "coordinates": [ -79.520162, 43.7145594 ] } },
{ "type": "Feature", "properties": { "Name": "Phil White Arena", "Street": "443 Arlington Ave", "City": "Toronto", "Type": "Recreational Centre" }, "geometry": { "type": "Point", "coordinates": [ -79.431444456849292, 43.69128 ] } },
{ "type": "Feature", "properties": { "Name": "Pine Point Arena", "Street": "15 Grierson Rd", "City": "Toronto", "Type": "Recreational Centre" }, "geometry": { "type": "Point", "coordinates": [ -79.54393005, 43.71320165 ] } },
{ "type": "Feature", "properties": { "Name": "Pleasant View Community Centre", "Street": "545 Van Horne Ave", "City": "Toronto", "Type": "Recreational Centre" }, "geometry": { "type": "Point", "coordinates": [ -79.3376675, 43.7872961 ] } },
{ "type": "Feature", "properties": { "Name": "Port Union Community Recreation Centre", "Street": "5450 Lawrence Ave", "City": "Toronto", "Type": "Recreational Centre" }, "geometry": { "type": "Point", "coordinates": [ -79.1400466, 43.7796268 ] } },
{ "type": "Feature", "properties": { "Name": "Power House Recreation Centre", "Street": "65 Colonel Samuel Smith Park Dr.", "City": "Toronto", "Type": "Recreational Centre" }, "geometry": { "type": "Point", "coordinates": [ -79.5153617, 43.593571 ] } },
{ "type": "Feature", "properties": { "Name": "Regent Park Community Centre", "Street": "402 Shuter St", "City": "Toronto", "Type": "Recreational Centre" }, "geometry": { "type": "Point", "coordinates": [ -79.3618808, 43.6577582 ] } },
{ "type": "Feature", "properties": { "Name": "Roding Community Centre", "Street": "600 Roding St", "City": "Toronto", "Type": "Recreational Centre" }, "geometry": { "type": "Point", "coordinates": [ -79.4920308, 43.7287228 ] } },
{ "type": "Feature", "properties": { "Name": "Roywood Park R.C. Clubhouse", "Street": "2 Roywood Dr", "City": "Toronto", "Type": "Recreational Centre" }, "geometry": { "type": "Point", "coordinates": [ -79.3224893, 43.7639213 ] } },
{ "type": "Feature", "properties": { "Name": "S.H. Armstrong Community Centre", "Street": "56 Woodfield Rd", "City": "Toronto", "Type": "Recreational Centre" }, "geometry": { "type": "Point", "coordinates": [ -79.3215766, 43.6656971 ] } },
{ "type": "Feature", "properties": { "Name": "Scadding Court Community Centre", "Street": "707 Dundas St.", "City": "Toronto", "Type": "Recreational Centre" }, "geometry": { "type": "Point", "coordinates": [ -79.4048143, 43.6519938 ] } },
{ "type": "Feature", "properties": { "Name": "Scarborough Arena Gardens", "Street": "75 Birchmount Rd", "City": "Toronto", "Type": "Recreational Centre" }, "geometry": { "type": "Point", "coordinates": [ -79.2622512, 43.6933347 ] } },
{ "type": "Feature", "properties": { "Name": "Scarborough Civic Centre", "Street": "150 Borough Dr", "City": "Toronto", "Type": "Recreational Centre" }, "geometry": { "type": "Point", "coordinates": [ -79.257586517857135, 43.7729485 ] } },
{ "type": "Feature", "properties": { "Name": "Scarborough Village Recreation Centre", "Street": "3600 Kingston Rd", "City": "Toronto", "Type": "Recreational Centre" }, "geometry": { "type": "Point", "coordinates": [ -79.2168333, 43.7392885 ] } },
{ "type": "Feature", "properties": { "Name": "Secord Community Centre", "Street": "91 Barrington Ave", "City": "Toronto", "Type": "Recreational Centre" }, "geometry": { "type": "Point", "coordinates": [ -79.301497, 43.6910847 ] } },
{ "type": "Feature", "properties": { "Name": "Seneca Village Community Centre", "Street": "1700 Finch Ave", "City": "Toronto", "Type": "Recreational Centre" }, "geometry": { "type": "Point", "coordinates": [ -79.3520693, 43.7933414 ] } },
{ "type": "Feature", "properties": { "Name": "Smithfield Community School", "Street": "175 Mount Olive Dr", "City": "Toronto", "Type": "Recreational Centre" }, "geometry": { "type": "Point", "coordinates": [ -79.59635904550251, 43.7497345 ] } },
{ "type": "Feature", "properties": { "Name": "St. Lawrence Community Recreation Centre", "Street": "230 The Esplanade", "City": "Toronto", "Type": "Recreational Centre" }, "geometry": { "type": "Point", "coordinates": [ -79.364888, 43.649686 ] } },
{ "type": "Feature", "properties": { "Name": "St. Marcellus Community School", "Street": "15 Denfield St", "City": "Toronto", "Type": "Recreational Centre" }, "geometry": { "type": "Point", "coordinates": [ -79.554114526926085, 43.67939795 ] } },
{ "type": "Feature", "properties": { "Name": "Stan Wadlow Clubhouse", "Street": "373 Cedarvale Ave", "City": "Toronto", "Type": "Recreational Centre" }, "geometry": { "type": "Point", "coordinates": [ -79.315141359825844, 43.6982047 ] } },
{ "type": "Feature", "properties": { "Name": "Stephen Leacock Community Recreation Centre", "Street": "2500 Birchmount Rd", "City": "Toronto", "Type": "Recreational Centre" }, "geometry": { "type": "Point", "coordinates": [ -79.3023569, 43.786537 ] } },
{ "type": "Feature", "properties": { "Name": "Stephen Leacock Seniors Community Centre", "Street": "2520 Birchmount Rd", "City": "Toronto", "Type": "Recreational Centre" }, "geometry": { "type": "Point", "coordinates": [ -79.3024731, 43.7868718 ] } },
{ "type": "Feature", "properties": { "Name": "Swansea Community Recreation Centre", "Street": "15 Waller Ave", "City": "Toronto", "Type": "Recreational Centre" }, "geometry": { "type": "Point", "coordinates": [ -79.4768848, 43.6441232 ] } },
{ "type": "Feature", "properties": { "Name": "Tall Pines Community Centre", "Street": "64 Rylander Blvd", "City": "Toronto", "Type": "Recreational Centre" }, "geometry": { "type": "Point", "coordinates": [ -79.1504049, 43.7981507 ] } },
{ "type": "Feature", "properties": { "Name": "Tam Heather Curling and Tennis Club", "Street": "730 Military Tr", "City": "Toronto", "Type": "Recreational Centre" }, "geometry": { "type": "Point", "coordinates": [ -79.2015636, 43.7912745 ] } },
{ "type": "Feature", "properties": { "Name": "Terry Fox Recreation Centre", "Street": "2 Gledhill Ave", "City": "Toronto", "Type": "Recreational Centre" }, "geometry": { "type": "Point", "coordinates": [ -79.309310078078084, 43.6876239 ] } },
{ "type": "Feature", "properties": { "Name": "The Elms Pool and Community School", "Street": "45 Golfdown Dr.", "City": "Toronto", "Type": "Recreational Centre" }, "geometry": { "type": "Point", "coordinates": [ -79.552173319723011, 43.72176985 ] } },
{ "type": "Feature", "properties": { "Name": "The New Generation Youth Recreation Centre", "Street": "2694 Eglinton Ave.", "City": "Toronto", "Type": "Recreational Centre" }, "geometry": { "type": "Point", "coordinates": [ -79.2487454, 43.7368764 ] } },
{ "type": "Feature", "properties": { "Name": "Thistletown Community Centre", "Street": "925 Albion Rd", "City": "Toronto", "Type": "Recreational Centre" }, "geometry": { "type": "Point", "coordinates": [ -79.562527360768485, 43.7354505 ] } },
{ "type": "Feature", "properties": { "Name": "Thistletown Seniors' Centre", "Street": "925 Albion Rd", "City": "Toronto", "Type": "Recreational Centre" }, "geometry": { "type": "Point", "coordinates": [ -79.562527360768485, 43.7354505 ] } },
{ "type": "Feature", "properties": { "Name": "Toronto Pan Am Sports Centre", "Street": "875 Morningside Ave", "City": "Toronto", "Type": "Recreational Centre" }, "geometry": { "type": "Point", "coordinates": [ -79.193691160646694, 43.79077545 ] } },
{ "type": "Feature", "properties": { "Name": "Toronto Track and Field Centre", "Street": "231 Ian Macdonald Blvd", "City": "Toronto", "Type": "Recreational Centre" }, "geometry": { "type": "Point", "coordinates": [ -79.506839795757401, 43.77675325 ] } },
{ "type": "Feature", "properties": { "Name": "Trace Manes Park Community Centre", "Street": "110 Rumsey Rd.", "City": "Toronto", "Type": "Recreational Centre" }, "geometry": { "type": "Point", "coordinates": [ -79.366815, 43.7046944 ] } },
{ "type": "Feature", "properties": { "Name": "Trinity Community Recreation Centre", "Street": "155 Crawford St", "City": "Toronto", "Type": "Recreational Centre" }, "geometry": { "type": "Point", "coordinates": [ -79.4150676, 43.6463946 ] } },
{ "type": "Feature", "properties": { "Name": "Victoria Village Recreation Centre and Arena", "Street": "190 Bermondsey Rd", "City": "Toronto", "Type": "Recreational Centre" }, "geometry": { "type": "Point", "coordinates": [ -79.3154875, 43.7228509 ] } },
{ "type": "Feature", "properties": { "Name": "Viewmount Community Centre", "Street": "169 Viewmount Ave", "City": "Toronto", "Type": "Recreational Centre" }, "geometry": { "type": "Point", "coordinates": [ -79.4376956, 43.7082563 ] } },
{ "type": "Feature", "properties": { "Name": "Wallace Emerson Community Centre", "Street": "1260 Dufferin St", "City": "Toronto", "Type": "Recreational Centre" }, "geometry": { "type": "Point", "coordinates": [ -79.4252759, 43.6335344 ] } },
{ "type": "Feature", "properties": { "Name": "Warden Hilltop Community Centre", "Street": "25 Mendelssohn St", "City": "Toronto", "Type": "Recreational Centre" }, "geometry": { "type": "Point", "coordinates": [ -79.280287870361775, 43.7146865 ] } },
{ "type": "Feature", "properties": { "Name": "Wellesley Community Centre", "Street": "495 Sherbourne St", "City": "Toronto", "Type": "Recreational Centre" }, "geometry": { "type": "Point", "coordinates": [ -79.3742632, 43.6673836 ] } },
{ "type": "Feature", "properties": { "Name": "West Acres Seniors Centre", "Street": "65 Hinton Rd", "City": "Toronto", "Type": "Recreational Centre" }, "geometry": { "type": "Point", "coordinates": [ -79.570613555949265, 43.7252419 ] } },
{ "type": "Feature", "properties": { "Name": "West Rouge Community Centre", "Street": "270 Rouge Hills Dr", "City": "Toronto", "Type": "Recreational Centre" }, "geometry": { "type": "Point", "coordinates": [ -79.1257451, 43.7921203 ] } },
{ "type": "Feature", "properties": { "Name": "Withrow Park and Clubhouse", "Street": "725 Logan Ave", "City": "Toronto", "Type": "Recreational Centre" }, "geometry": { "type": "Point", "coordinates": [ -79.3403092, 43.655291 ] } },
{ "type": "Feature", "properties": { "Name": "York Mills Arena", "Street": "2539 Bayview Ave", "City": "Toronto", "Type": "Recreational Centre" }, "geometry": { "type": "Point", "coordinates": [ -79.3836315, 43.7462525 ] } },
{ "type": "Feature", "properties": { "Name": "York Recreation Centre", "Street": "115 Black Creek Dr", "City": "Toronto", "Type": "Recreational Centre" }, "geometry": { "type": "Point", "coordinates": [ -79.4830132, 43.6885035 ] } },
{ "type": "Feature", "properties": { "Name": "Clarkson Community Centre", "Street": "2475 Truscott Dr", "City": "Mississauga", "Type": "Community Centre" }, "geometry": { "type": "Point", "coordinates": [ -79.650344145603583, 43.511564200765385 ] } },
{ "type": "Feature", "properties": { "Name": "South Common Community Centre", "Street": "2233 South Millway", "City": "Mississauga", "Type": "Community Centre" }, "geometry": { "type": "Point", "coordinates": [ -79.684401984493263, 43.542507814990628 ] } },
{ "type": "Feature", "properties": { "Name": "Erin Meadows Community Centre", "Street": "2800 Erin Centre Blvd", "City": "Mississauga", "Type": "Community Centre" }, "geometry": { "type": "Point", "coordinates": [ -79.717574814189362, 43.55640042014597 ] } },
{ "type": "Feature", "properties": { "Name": "Carmen Corbasson Community Centre ", "Street": "1399 Cawthra Rd", "City": "Mississauga", "Type": "Community Centre" }, "geometry": { "type": "Point", "coordinates": [ -79.576791058826757, 43.578276148927749 ] } },
{ "type": "Feature", "properties": { "Name": "Meadowvale Community Centre", "Street": "6655 Glen Erin Dr", "City": "Mississauga", "Type": "Community Centre" }, "geometry": { "type": "Point", "coordinates": [ -79.756379474322699, 43.585530598244581 ] } },
{ "type": "Feature", "properties": { "Name": "River Grove Community Centre", "Street": "5800 River Grove Ave", "City": "Mississauga", "Type": "Community Centre" }, "geometry": { "type": "Point", "coordinates": [ -79.712111722624044, 43.589563194919769 ] } },
{ "type": "Feature", "properties": { "Name": "Mississauga Valley Community Centre", "Street": "1275 Mississauga Valley Blvd", "City": "Mississauga", "Type": "Community Centre" }, "geometry": { "type": "Point", "coordinates": [ -79.623877860792945, 43.59711819219622 ] } },
{ "type": "Feature", "properties": { "Name": "Frank McKechnie Community Centre", "Street": "310 Bristol Rd E", "City": "Mississauga", "Type": "Community Centre" }, "geometry": { "type": "Point", "coordinates": [ -79.653322726205033, 43.616406777100181 ] } },
{ "type": "Feature", "properties": { "Name": "Burnhamthorpe Community Centre & Arena ", "Street": "1500 Gulleden Dr", "City": "Mississauga", "Type": "Community Centre" }, "geometry": { "type": "Point", "coordinates": [ -79.598593335821164, 43.622773514842947 ] } },
{ "type": "Feature", "properties": { "Name": "Cassie Campbell Community Centre", "Street": "1050 Sandalwood Pky W", "City": "Brampton", "Type": "Community Centre" }, "geometry": { "type": "Point", "coordinates": [ -79.825017104174876, 43.696641289411872 ] } },
{ "type": "Feature", "properties": { "Name": "Knightsbridge Community & Senior Centre", "Street": "1 Knightsbridge Rd", "City": "Brampton", "Type": "Community Centre" }, "geometry": { "type": "Point", "coordinates": [ -79.717501826011443, 43.717377970371665 ] } },
{ "type": "Feature", "properties": { "Name": "Brampton Civic Centre", "Street": "150 Central Park Dr", "City": "Brampton", "Type": "Community Centre" }, "geometry": { "type": "Point", "coordinates": [ -79.719748084818491, 43.718150660038241 ] } },
{ "type": "Feature", "properties": { "Name": "Malton Community Centre", "Street": "3540 Morning Star Dr", "City": "Mississauga", "Type": "Community Centre" }, "geometry": { "type": "Point", "coordinates": [ -79.638411412161631, 43.723607115541689 ] } },
{ "type": "Feature", "properties": { "Name": "Snelgrove Community Centre", "Street": "11692 Hurontario St", "City": "Brampton", "Type": "Community Centre" }, "geometry": { "type": "Point", "coordinates": [ -79.822650578073265, 43.730948455433072 ] } },
{ "type": "Feature", "properties": { "Name": "Ebenezer Community Hall", "Street": "4494 Ebenezer Rd", "City": "Brampton", "Type": "Community Centre" }, "geometry": { "type": "Point", "coordinates": [ -79.663822082839999, 43.772097061206367 ] } },
{ "type": "Feature", "properties": { "Name": "Belfountain Community Hall", "Street": "17204 Old Main St", "City": "Caledon", "Type": "Community Centre" }, "geometry": { "type": "Point", "coordinates": [ -80.012453478757365, 43.792636041082346 ] } },
{ "type": "Feature", "properties": { "Name": "Inglewood Community Centre", "Street": "15825 McLaughlin Rd", "City": "Caledon", "Type": "Community Centre" }, "geometry": { "type": "Point", "coordinates": [ -79.935988052502509, 43.80063858573682 ] } },
{ "type": "Feature", "properties": { "Name": "Caledon Village Place", "Street": "18313 Hurontario St", "City": "Caledon", "Type": "Community Centre" }, "geometry": { "type": "Point", "coordinates": [ -79.993038999805748, 43.859063868607237 ] } },
{ "type": "Feature", "properties": { "Name": "Caledon East Community Complex", "Street": "6215 Old Church Rd", "City": "Caledon", "Type": "Community Centre" }, "geometry": { "type": "Point", "coordinates": [ -79.860441898903431, 43.873979062050509 ] } },
{ "type": "Feature", "properties": { "Name": "Albion Bolton Community Centre", "Street": "150 Queen St S", "City": "Caledon", "Type": "Community Centre" }, "geometry": { "type": "Point", "coordinates": [ -79.735441757121166, 43.876150762772241 ] } },
{ "type": "Feature", "properties": { "Name": "Victoria Parks Community Centre", "Street": "35 Victoria Cres", "City": "Caledon", "Type": "Community Centre" }, "geometry": { "type": "Point", "coordinates": [ -79.971332861214719, 43.944606496261514 ] } },
{ "type": "Feature", "properties": { "Name": "Gore Meadows Community Recreation Centre", "Street": "10150 The Gore Rd", "City": "Brampton", "Type": "Recreation Centre" }, "geometry": { "type": "Point", "coordinates": [ -79.695005110857849, 43.794492967042991 ] } },
{ "type": "Feature", "properties": { "Name": "Huron Park Recreation Centre", "Street": "830 Paisley Blvd W", "City": "Mississauga", "Type": "Recreation Centre" }, "geometry": { "type": "Point", "coordinates": [ -79.632922764011994, 43.559135205296045 ] } },
{ "type": "Feature", "properties": { "Name": "Chris Gibson Recreation Centre", "Street": "125 McLaughlin Rd N", "City": "Brampton", "Type": "Recreation Centre" }, "geometry": { "type": "Point", "coordinates": [ -79.776323659210817, 43.681431317331281 ] } },
{ "type": "Feature", "properties": { "Name": "Central Public School Recreation and Art Centre", "Street": "24 Alexander St", "City": "Brampton", "Type": "Recreation Centre" }, "geometry": { "type": "Point", "coordinates": [ -79.763110352946654, 43.690289362320144 ] } },
{ "type": "Feature", "properties": { "Name": "Balmoral Recreation Centre", "Street": "225 Balmoral Dr", "City": "Brampton", "Type": "Recreation Centre" }, "geometry": { "type": "Point", "coordinates": [ -79.713002583754488, 43.707308918545195 ] } },
{ "type": "Feature", "properties": { "Name": "Century Gardens Recreation Centre", "Street": "340 Vodden St E", "City": "Brampton", "Type": "Recreation Centre" }, "geometry": { "type": "Point", "coordinates": [ -79.753638080939439, 43.708854068774151 ] } },
{ "type": "Feature", "properties": { "Name": "Jim Archdekin Recreation Centre", "Street": "292 Conestoga Dr", "City": "Brampton", "Type": "Recreation Centre" }, "geometry": { "type": "Point", "coordinates": [ -79.789363184903621, 43.717542275187178 ] } },
{ "type": "Feature", "properties": { "Name": "Howden Recreation Centre", "Street": "150 Howden Blvd", "City": "Brampton", "Type": "Recreation Centre" }, "geometry": { "type": "Point", "coordinates": [ -79.728459514513318, 43.72143209906082 ] } },
{ "type": "Feature", "properties": { "Name": "Earnscliffe Recreation Centre", "Street": "44 Eastbourne Dr", "City": "Brampton", "Type": "Recreation Centre" }, "geometry": { "type": "Point", "coordinates": [ -79.6995198616913, 43.72368491562785 ] } },
{ "type": "Feature", "properties": { "Name": "Paul Palleschi Recreation Centre", "Street": "30 Loafers Lake Lane", "City": "Brampton", "Type": "Recreation Centre" }, "geometry": { "type": "Point", "coordinates": [ -79.800726781330127, 43.724955298547606 ] } },
{ "type": "Feature", "properties": { "Name": "Terry Miller Recreation Centre", "Street": "1295 Williams Pky", "City": "Brampton", "Type": "Recreation Centre" }, "geometry": { "type": "Point", "coordinates": [ -79.731610408291218, 43.731952091029939 ] } },
{ "type": "Feature", "properties": { "Name": "Ellen Mitchell Recreation Centre", "Street": "922 North Park Dr", "City": "Brampton", "Type": "Recreation Centre" }, "geometry": { "type": "Point", "coordinates": [ -79.744734356012856, 43.733798279045601 ] } },
{ "type": "Feature", "properties": { "Name": "Greenbriar Recreation Centre", "Street": "1100 Central Park Dr", "City": "Brampton", "Type": "Recreation Centre" }, "geometry": { "type": "Point", "coordinates": [ -79.716888290427917, 43.735731220223862 ] } },
{ "type": "Feature", "properties": { "Name": "Professor's Lake Recreation Centre", "Street": "1660 North Park Dr", "City": "Brampton", "Type": "Recreation Centre" }, "geometry": { "type": "Point", "coordinates": [ -79.733054576621711, 43.746467121709827 ] } },
{ "type": "Feature", "properties": { "Name": "Chinguacousy Wellness Centre", "Street": "995 Peter Robertson Blvd", "City": "Brampton", "Type": "Recreation Centre" }, "geometry": { "type": "Point", "coordinates": [ -79.742696698635655, 43.749296013093634 ] } },
{ "type": "Feature", "properties": { "Name": "Bob Callahan Flower City Seniors Recreation Centre", "Street": "8870 McLaughlin Rd S", "City": "Brampton", "Type": "Recreation Centre" }, "geometry": { "type": "Point", "coordinates": [ -79.769366907899212, 43.671420666292114 ] } },
{ "type": "Feature", "properties": { "Name": "Caledon Centre for Recreation and Wellness", "Street": "14111 Hwy 50", "City": "Caledon", "Type": "Recreation Centre" }, "geometry": { "type": "Point", "coordinates": [ -79.752302837398233, 43.890734809029922 ] } },
{ "type": "Feature", "properties": { "Name": "Vic Johnston Community Centre ", "Street": "335 Church St", "City": "Mississauga", "Type": "Community Centre" }, "geometry": { "type": "Point", "coordinates": [ -79.708189573227997, 43.57956900461199 ] } },
{ "type": "Feature", "properties": { "Name": "Mississauga Seniors' Centre", "Street": "1389 Cawthra Rd", "City": "Mississauga", "Type": "Community Centre" }, "geometry": { "type": "Point", "coordinates": [ -79.574906984764198, 43.578635572324139 ] } },
{ "type": "Feature", "properties": { "Name": "Norton Place Park Community Centre", "Street": "170 Clark Blvd", "City": "Brampton", "Type": "Community Centre" }, "geometry": { "type": "Point", "coordinates": [ -79.727697441792856, 43.707566910925934 ] } },
{ "type": "Feature", "properties": { "Name": "Paramount Fine Foods Centre", "Street": "5500 Rose Cherry Pl", "City": "Mississauga", "Type": "Recreation Centre" }, "geometry": { "type": "Point", "coordinates": [ -79.653611052489154, 43.631742710477795 ] } },
{ "type": "Feature", "properties": { "Name": "Iceland Sports Complex", "Street": "705 Matheson Blvd E", "City": "Mississauga", "Type": "Recreation Centre" }, "geometry": { "type": "Point", "coordinates": [ -79.649391270521917, 43.627980052064018 ] } },
{ "type": "Feature", "properties": { "Name": "Knightsbridge Senior Centre", "Street": "1A Knightsbridge Rd", "City": "Brampton", "Type": "Recreation Centre" }, "geometry": { "type": "Point", "coordinates": [ -79.717346780164249, 43.717460456901883 ] } },
{ "type": "Feature", "properties": { "Name": "Ken Giles Recreation Centre", "Street": "370 Bartley Bull Pky", "City": "Brampton", "Type": "Recreation Centre" }, "geometry": { "type": "Point", "coordinates": [ -79.726345603488639, 43.67719978641319 ] } },
{ "type": "Feature", "properties": { "Name": "Mayfield Recreation Complex", "Street": "12087 Bramalea Rd", "City": "Caledon", "Type": "Community Centre" }, "geometry": { "type": "Point", "coordinates": [ -79.784130061848643, 43.774972164866242 ] } },
{ "type": "Feature", "properties": { "Name": "Bob Callahan Flower City Seniors Centre", "Street": "8870 McLaughlin Rd", "City": "Brampton", "Type": "Community Centre" }, "geometry": { "type": "Point", "coordinates": [ -79.769366907899212, 43.671420666292114 ] } },
{ "type": "Feature", "properties": { "Name": "Earnscliffe Recreation Centre", "Street": "44 Eastbourne Dr", "City": "Brampton", "Type": "Community Centre" }, "geometry": { "type": "Point", "coordinates": [ -79.699515306097169, 43.72325083630875 ] } },
{ "type": "Feature", "properties": { "Name": "Greenbriar Recreation Centre", "Street": "1100 Central Park Dr", "City": "Brampton", "Type": "Community Centre" }, "geometry": { "type": "Point", "coordinates": [ -79.71723707452847, 43.735993944364914 ] } },
{ "type": "Feature", "properties": { "Name": "Terry Miller Recreation Centre", "Street": "1295 Williams Pky", "City": "Brampton", "Type": "Community Centre" }, "geometry": { "type": "Point", "coordinates": [ -79.731260746945551, 43.731890812081026 ] } },
{ "type": "Feature", "properties": { "Name": "Save Max Sports Centre", "Street": "1495 Sandalwood Pky E", "City": "Brampton", "Type": "Community Centre" }, "geometry": { "type": "Point", "coordinates": [ -79.769041094147298, 43.74371198266094 ] } },
{ "type": "Feature", "properties": { "Name": "Gore Meadows Community Centre and Library", "Street": "10150 The Gore Rd", "City": "Brampton", "Type": "Community Centre" }, "geometry": { "type": "Point", "coordinates": [ -79.694534127911666, 43.794214517656002 ] } },
{ "type": "Feature", "properties": { "Name": "Mount Pleasant ", "Street": "100 Commuter Dr", "City": "Brampton", "Type": "Community Centre" }, "geometry": { "type": "Point", "coordinates": [ -79.824018878214815, 43.677016233626077 ] } },
{ "type": "Feature", "properties": { "Name": "Courtneypark Branch Library and Active Living Centre", "Street": "730 Courtneypark Dr W", "City": "Mississauga", "Type": "Recreation Centre" }, "geometry": { "type": "Point", "coordinates": [ -79.710192627032242, 43.623763564280793 ] } },
{ "type": "Feature", "properties": { "Name": "Churchill Meadows Branch Library and Active Living Centre ", "Street": "3801 Thomas St", "City": "Mississauga", "Type": "Recreation Centre" }, "geometry": { "type": "Point", "coordinates": [ -79.746534821018045, 43.552716313330777 ] } },
{ "type": "Feature", "properties": { "Name": "Southfields Community Centre", "Street": "225 Dougall Ave", "City": "Caledon", "Type": "Community Centre" }, "geometry": { "type": "Point", "coordinates": [ -79.826330539745754, 43.756771107731083 ] } },
{ "type": "Feature", "properties": { "Name": "Riverstone Community Centre", "Street": "195 Don Minaker Dr", "City": "Brampton", "Type": "Community Centre" }, "geometry": { "type": "Point", "coordinates": [ -79.670749820975814, 43.765914776969524 ] } },
{ "type": "Feature", "properties": { "Name": "The Collaborative Learning and Technology Centre", "Street": "32 Kennedy Rd N", "City": "Brampton", "Type": "Community Centre" }, "geometry": { "type": "Point", "coordinates": [ -79.751377477715081, 43.698640768028298 ] } },
{ "type": "Feature", "properties": { "Name": "Susan Fennell Sportplex", "Street": "500 Ray Lawson Blvd", "City": "Brampton", "Type": "Recreation Centre" }, "geometry": { "type": "Point", "coordinates": [ -79.735954296795768, 43.652891106678148 ] } },
{ "type": "Feature", "properties": { "Name": "Stronach Aurora Recreation Complex", "Street": "1400 Wellington St E", "City": "Aurora", "Type": "Recreational Centre" }, "geometry": { "type": "Point", "coordinates": [ -79.423404413191975, 44.009861554281891 ] } },
{ "type": "Feature", "properties": { "Name": "Aurora Family Leisure Complex", "Street": "135 Industrial Parkway North", "City": "Aurora", "Type": "Recreational Centre" }, "geometry": { "type": "Point", "coordinates": [ -79.4592496, 44.0082007 ] } },
{ "type": "Feature", "properties": { "Name": "Aurora Community Centre", "Street": "1 Community Centre Lane", "City": "Aurora", "Type": "Community Centre" }, "geometry": { "type": "Point", "coordinates": [ -79.4705965, 44.0046656 ] } },
{ "type": "Feature", "properties": { "Name": "Multi-Use Recreation Complex", "Street": " 261 Garrett Styles Dr", "City": "Georgina", "Type": "Recreational Centre" }, "geometry": { "type": "Point", "coordinates": [ -79.466775, 44.2067171 ] } },
{ "type": "Feature", "properties": { "Name": "Georgina Island Community Ctr", "Street": "893 Chief Joseph Snake Rd", "City": "Georgina", "Type": "Community Centre" }, "geometry": { "type": "Point", "coordinates": [ -79.3132025, 44.3731849 ] } },
{ "type": "Feature", "properties": { "Name": "Kin Community Centre", "Street": "15 Fairpark Ln", "City": "Georgina", "Type": "Community Centre" }, "geometry": { "type": "Point", "coordinates": [ -79.35279248325358, 44.303588 ] } },
{ "type": "Feature", "properties": { "Name": "East Gwillimbury Sports Complex", "Street": "1914B Mount Albert Road", "City": "East Gwillimbury", "Type": "Recreational Centre" }, "geometry": { "type": "Point", "coordinates": [ -79.426505459615043, 44.106572 ] } },
{ "type": "Feature", "properties": { "Name": "Holland Landing Community Centre", "Street": "19513 Yonge Street", "City": "East Gwillimbury", "Type": "Community Centre" }, "geometry": { "type": "Point", "coordinates": [ -79.4923853, 44.1054778 ] } },
{ "type": "Feature", "properties": { "Name": "Ross Family Complex", "Street": "19300 Centre Street", "City": "East Gwillimbury", "Type": "Recreational Centre" }, "geometry": { "type": "Point", "coordinates": [ -79.312213748193855, 44.150403605055807 ] } },
{ "type": "Feature", "properties": { "Name": "King Township Municipal Centre ", "Street": "2585 King Road", "City": "King City", "Type": "Community Centre" }, "geometry": { "type": "Point", "coordinates": [ -79.5535731, 43.9227573 ] } },
{ "type": "Feature", "properties": { "Name": "Trisan Fitness Centre", "Street": "25 Dillane Drive", "City": "King City", "Type": "Recreational Centre" }, "geometry": { "type": "Point", "coordinates": [ -79.6743092, 44.0080974 ] } },
{ "type": "Feature", "properties": { "Name": "Dr. William Laceby Nobleton Community Centre & Arena", "Street": "15 Old King Road", "City": "King City", "Type": "Community Centre" }, "geometry": { "type": "Point", "coordinates": [ -79.6537199, 43.9009843 ] } },
{ "type": "Feature", "properties": { "Name": "Aaniin Community Centre & Library", "Street": "5665 14th Avenue", "City": "Markham", "Type": "Community Centre" }, "geometry": { "type": "Point", "coordinates": [ -79.2664355, 43.8519313 ] } },
{ "type": "Feature", "properties": { "Name": "Angus Glen Community Centre & Library", "Street": "3990 Major Mackenzie Drive East", "City": "Markham", "Type": "Community Centre" }, "geometry": { "type": "Point", "coordinates": [ -79.3401853, 43.8930067 ] } },
{ "type": "Feature", "properties": { "Name": "Armadale Community Centre", "Street": "2401 Denison Street", "City": "Markham", "Type": "Community Centre" }, "geometry": { "type": "Point", "coordinates": [ -79.2833583, 43.839196 ] } },
{ "type": "Feature", "properties": { "Name": "Centennial Community Centre", "Street": "8600 McCowan Road", "City": "Markham", "Type": "Community Centre" }, "geometry": { "type": "Point", "coordinates": [ -79.287773550193492, 43.8731028 ] } },
{ "type": "Feature", "properties": { "Name": "Cornell Community Centre", "Street": "3201 Bur Oak Avenue", "City": "Markham", "Type": "Community Centre" }, "geometry": { "type": "Point", "coordinates": [ -79.229488509327524, 43.8844133 ] } },
{ "type": "Feature", "properties": { "Name": "Markham Pan Am Centre", "Street": "16 Main Street Unionville", "City": "Markham", "Type": "Recreational Centre" }, "geometry": { "type": "Point", "coordinates": [ -79.308934960947454, 43.85504695 ] } },
{ "type": "Feature", "properties": { "Name": "Markham Village Community Centre & Library", "Street": "6041 Highway 7", "City": "Markham", "Type": "Community Centre" }, "geometry": { "type": "Point", "coordinates": [ -79.2581201, 43.8741839 ] } },
{ "type": "Feature", "properties": { "Name": "Milliken Mills Community Centre", "Street": "7600 Kennedy Road", "City": "Markham", "Type": "Community Centre" }, "geometry": { "type": "Point", "coordinates": [ -79.3056243, 43.8407 ] } },
{ "type": "Feature", "properties": { "Name": "Old Unionville Library Community Centre", "Street": "15 Library Lane", "City": "Markham", "Type": "Community Centre" }, "geometry": { "type": "Point", "coordinates": [ -79.3116729, 43.8701749 ] } },
{ "type": "Feature", "properties": { "Name": "Rouge River Community Centre", "Street": "120 Rouge Bank Drive", "City": "Markham", "Type": "Community Centre" }, "geometry": { "type": "Point", "coordinates": [ -79.244089477583998, 43.86239585 ] } },
{ "type": "Feature", "properties": { "Name": "Thornhill Community Centre & Library", "Street": "7755 Bayview Avenue", "City": "Markham", "Type": "Community Centre" }, "geometry": { "type": "Point", "coordinates": [ -79.3999182, 43.8195071 ] } },
{ "type": "Feature", "properties": { "Name": "Thornlea Pool and Gym", "Street": "8079 Bayview Avenue  ", "City": "Markham", "Type": "Recreational Centre" }, "geometry": { "type": "Point", "coordinates": [ -79.403319711955788, 43.828476598983258 ] } },
{ "type": "Feature", "properties": { "Name": "Magna Centre", "Street": "800 Mulock Drive", "City": "Newmarket", "Type": "Recreational Centre" }, "geometry": { "type": "Point", "coordinates": [ -79.438972909090154, 44.0438385 ] } },
{ "type": "Feature", "properties": { "Name": "Newmarket Community Centre", "Street": "200 Doug Duncan Drive", "City": "Newmarket", "Type": "Community Centre" }, "geometry": { "type": "Point", "coordinates": [ -79.4554223, 44.0529278 ] } },
{ "type": "Feature", "properties": { "Name": "Ray Twinney Recreation Complex", "Street": "100 Eagle St W", "City": "Newmarket", "Type": "Recreational Centre" }, "geometry": { "type": "Point", "coordinates": [ -79.486769546199994, 44.0446757 ] } },
{ "type": "Feature", "properties": { "Name": "Newmarket Recreation Youth Centre", "Street": "56 Charles St", "City": "Newmarket", "Type": "Community Centre" }, "geometry": { "type": "Point", "coordinates": [ -79.4551764, 44.058109 ] } },
{ "type": "Feature", "properties": { "Name": "Bayview Hill Community Centre and Pool", "Street": "114 Spadina Road", "City": "Richmond Hill", "Type": "Community Centre" }, "geometry": { "type": "Point", "coordinates": [ -79.402001131990843, 43.86964415 ] } },
{ "type": "Feature", "properties": { "Name": "Ed Sackfield Arena and Fitness Centre", "Street": "311 Valleymede Drive", "City": "Richmond Hill", "Type": "Recreational Centre" }, "geometry": { "type": "Point", "coordinates": [ -79.398950259919644, 43.857107648703447 ] } },
{ "type": "Feature", "properties": { "Name": "Elgin West Community Centre and Pool", "Street": "11099 Bathurst Street", "City": "Richmond Hill", "Type": "Community Centre" }, "geometry": { "type": "Point", "coordinates": [ -79.46815814633473, 43.8929759 ] } },
{ "type": "Feature", "properties": { "Name": "Langstaff Community Centre", "Street": "155 Red Maple Road", "City": "Richmond Hill", "Type": "Community Centre" }, "geometry": { "type": "Point", "coordinates": [ -79.4227475, 43.844723 ] } },
{ "type": "Feature", "properties": { "Name": "McConaghy Centre", "Street": "10100 Yonge Street", "City": "Richmond Hill", "Type": "Community Centre" }, "geometry": { "type": "Point", "coordinates": [ -79.437951342535541, 43.87370029970819 ] } },
{ "type": "Feature", "properties": { "Name": "Oak Ridges Community Centre", "Street": "12895 Bayview Avenue", "City": "Richmond Hill", "Type": "Community Centre" }, "geometry": { "type": "Point", "coordinates": [ -79.4300946, 43.9474796 ] } },
{ "type": "Feature", "properties": { "Name": "Richmond Green Sports Centre and Park", "Street": "1300 Elgin Mills Road East", "City": "Richmond Hill", "Type": "Recreational Centre" }, "geometry": { "type": "Point", "coordinates": [ -79.4025669, 43.8989117 ] } },
{ "type": "Feature", "properties": { "Name": "Richvale Community Centre and Pool", "Street": "160 Avenue Road", "City": "Richmond Hill", "Type": "Community Centre" }, "geometry": { "type": "Point", "coordinates": [ -79.4432588, 43.8544071 ] } },
{ "type": "Feature", "properties": { "Name": "Rouge Woods Community Centre", "Street": "110 Shirley Drive", "City": "Richmond Hill", "Type": "Community Centre" }, "geometry": { "type": "Point", "coordinates": [ -79.4047069, 43.8847499 ] } },
{ "type": "Feature", "properties": { "Name": "Al Palladini Community Centre", "Street": "9201 Islington Avenue", "City": "Vaughan", "Type": "Community Centre" }, "geometry": { "type": "Point", "coordinates": [ -79.5983033, 43.8159643 ] } },
{ "type": "Feature", "properties": { "Name": "Chancellor Community Centre", "Street": "350 Ansley Grove Road", "City": "Vaughan", "Type": "Community Centre" }, "geometry": { "type": "Point", "coordinates": [ -79.563559232211304, 43.7958584 ] } },
{ "type": "Feature", "properties": { "Name": "Dufferin Clark Community Centre", "Street": "1441 Clark Ave. W", "City": "Vaughan", "Type": "Community Centre" }, "geometry": { "type": "Point", "coordinates": [ -79.4721567, 43.7970908 ] } },
{ "type": "Feature", "properties": { "Name": "Father E. Bulfon Community Centre", "Street": "8141 Martin Grove Road", "City": "Vaughan", "Type": "Community Centre" }, "geometry": { "type": "Point", "coordinates": [ -79.6121276, 43.7874525 ] } },
{ "type": "Feature", "properties": { "Name": "Garnet A. Williams Community Centre", "Street": "501 Clark Avenue West", "City": "Vaughan", "Type": "Community Centre" }, "geometry": { "type": "Point", "coordinates": [ -79.4405675, 43.804711 ] } },
{ "type": "Feature", "properties": { "Name": "Maple Community Centre", "Street": "10190 Keele Street", "City": "Vaughan", "Type": "Community Centre" }, "geometry": { "type": "Point", "coordinates": [ -79.5134755, 43.858901 ] } },
{ "type": "Feature", "properties": { "Name": "North Thornhill Community Centre", "Street": "300 Pleasant Ridge Avenue", "City": "Vaughan", "Type": "Community Centre" }, "geometry": { "type": "Point", "coordinates": [ -79.47453927272727, 43.832833090909091 ] } },
{ "type": "Feature", "properties": { "Name": "Rosemount Community Centre", "Street": "1000 New Westminster Drive", "City": "Vaughan", "Type": "Community Centre" }, "geometry": { "type": "Point", "coordinates": [ -79.4534713, 43.8178703 ] } },
{ "type": "Feature", "properties": { "Name": "Vellore Village Community Centre", "Street": "1 Villa Royale Avenue", "City": "Vaughan", "Type": "Community Centre" }, "geometry": { "type": "Point", "coordinates": [ -79.5591166, 43.8375696 ] } },
{ "type": "Feature", "properties": { "Name": "Woodbridge Pool & Memorial Arena", "Street": "5020 Highway 7", "City": "Vaughan", "Type": "Recreational Centre" }, "geometry": { "type": "Point", "coordinates": [ -79.5916837, 43.7802455 ] } },
{ "type": "Feature", "properties": { "Name": "Whitchurch-Stouffville Leisure Centre", "Street": "2 Park Drive", "City": "Whitchurch-Stouffville", "Type": "Recreational Centre" }, "geometry": { "type": "Point", "coordinates": [ -79.244574136730051, 43.9669861 ] } },
{ "type": "Feature", "properties": { "Name": "Ballantrae Community Centre", "Street": "5592 Aurora Road", "City": "Whitchurch-Stouffville", "Type": "Community Centre" }, "geometry": { "type": "Point", "coordinates": [ -79.285328442542607, 44.04063585113775 ] } }
]
}
